,City,Country,Date,Latitude,Longitude,Temp,Temp Min,Temp Max,Pressure,Humidity,Clouds,Wind Speed,Max F
0,Hinton,CA,1578450793,53.4,-117.57,-12.569999999999993,260.58,260.58,1006,97,100,4.183190000000001,9.374000000000013
1,Ilebo,CD,1578450793,-4.33,20.59,20.360000000000014,293.51,293.51,1010,98,100,1.76723,68.64800000000002
2,Punta Arenas,CL,1578450793,-53.16,-70.91,10.0,283.15,283.15,980,76,75,19.4619,50.0
3,Pevek,RU,1578450793,69.7,170.27,-24.339999999999975,248.81,248.81,1015,81,0,13.77992,-11.811999999999955
4,Adelaide,AU,1578450793,-34.93,138.6,33.24000000000001,303.15,308.71,1013,9,0,4.004230000000001,96.00800000000001
5,Pereslavl-Zalesskiy,RU,1578450793,56.74,38.86,-1.3899999999999864,271.76,271.76,1021,96,100,9.194070000000002,29.498000000000026
6,Thompson,CA,1578450794,55.74,-97.86,-25.99999999999997,247.15,247.15,1022,75,40,4.6977,-14.799999999999947
7,Puerto Baquerizo Moreno,EC,1578450794,-0.9,-89.6,25.379999999999995,298.53,298.53,1013,84,75,8.59008,77.684
8,Broome,GB,1578450794,52.47,1.45,12.79000000000002,284.82,287.15,1016,82,100,16.1064,57.2
9,Hilo,US,1578450794,19.71,-155.08,23.420000000000016,294.26,300.15,1019,57,75,13.8694,80.6
10,Mataura,NZ,1578450794,-46.19,168.86,15.560000000000002,288.71,288.71,1015,66,97,11.00604,60.00800000000001
11,Souillac,FR,1578450794,45.6,-0.6,10.340000000000032,283.15,284.15,1031,100,90,3.3555,51.8
12,Tecoanapa,MX,1578450794,16.99,-99.26,26.0,299.15,299.15,1014,83,20,3.3555,78.80000000000001
13,Avera,US,1578450794,33.19,-82.53,8.270000000000039,278.71,284.15,1023,39,1,5.8162,51.8
14,Hobart,AU,1578450794,-42.88,147.33,23.05000000000001,294.15,297.59,1019,43,20,16.1064,75.99199999999999
15,Saint George,GR,1578450795,39.45,22.34,-1.1899999999999977,268.15,275.37,1026,79,20,2.03567,35.99600000000005
16,Umm Lajj,SA,1578450795,25.02,37.27,11.939999999999998,285.09,285.09,1016,56,0,4.63059,53.492
17,Jamestown,AU,1578450539,-33.21,138.6,31.430000000000007,304.58,304.58,1013,20,0,7.583430000000001,88.57400000000001
18,Albany,US,1578450557,42.65,-73.75,-1.2399999999999523,270.37,273.71,1011,63,90,2.5054400000000006,33.008
19,Port Alfred,ZA,1578450795,-33.59,26.89,20.560000000000002,293.71,293.71,1008,98,100,1.00665,69.00800000000001
20,Rikitea,PF,1578450795,-23.12,-134.97,25.07000000000005,298.22,298.22,1017,80,0,17.6723,77.12600000000009
21,Danjiangkou,CN,1578450795,32.54,111.51,3.480000000000018,276.63,276.63,1030,88,100,9.14933,38.26400000000003
22,Nanakuli,US,1578450795,21.39,-158.15,24.480000000000018,296.15,299.15,1019,73,90,13.8694,78.80000000000001
23,Bethel,US,1578450796,60.79,-161.76,-28.22999999999999,244.15,245.15,1018,75,1,16.1064,-18.39999999999995
24,Vaini,IN,1578450796,15.34,74.49,17.0,290.15,290.15,1017,100,40,3.33313,62.6
25,Ushuaia,AR,1578450713,-54.81,-68.31,8.0,281.15,281.15,981,93,90,4.6977,46.4
26,Tame,CO,1578450796,6.46,-71.72,23.960000000000036,297.11,297.11,1014,65,0,4.63059,75.12800000000007
27,Bluff,AU,1578450796,-23.58,149.07,33.27000000000004,306.42,306.42,1011,25,2,12.68379,91.88600000000008
28,Peabiru,BR,1578450796,-23.91,-52.35,22.0,295.15,295.15,1009,100,20,5.8162,71.6
29,Krasnohrad,UA,1578450796,49.38,35.45,-5.769999999999982,267.38,267.38,1029,75,0,8.14268,21.614000000000033
30,Ternate,PH,1578450797,14.29,120.72,28.980000000000018,301.15,303.71,1014,74,75,4.6977,87.00800000000001
31,Yellowknife,CA,1578450797,62.45,-114.38,-35.75999999999999,237.15,237.59,1022,73,20,3.3555,-32.00799999999995
32,East London,ZA,1578450797,-33.02,27.91,23.180000000000007,296.33,296.33,1009,90,100,12.191650000000001,73.72400000000002
33,Esperance,AU,1578450666,-33.86,121.89,26.0,299.15,299.15,1006,57,0,12.750900000000001,78.80000000000001
34,Butaritari,KI,1578450797,3.07,172.79,28.870000000000005,302.02,302.02,1005,80,100,17.851260000000003,83.96600000000001
35,Sioux Lookout,CA,1578450797,50.1,-91.92,-19.99999999999997,253.15,253.15,1017,70,75,17.2249,-3.9999999999999503
36,Namibe,AO,1578450797,-15.19,12.15,23.010000000000048,296.16,296.16,1011,81,100,3.55683,73.41800000000009
37,Suluq,LY,1578450797,31.67,20.25,10.830000000000041,283.98,283.98,1022,80,100,11.81136,51.49400000000007
38,Rudnyy,KZ,1578450797,52.96,63.12,-8.0,265.15,265.15,1029,92,90,2.237,17.6
39,Rabo de Peixe,PT,1578450798,37.8,-25.58,18.0,291.15,291.15,1030,93,20,12.750900000000001,64.4
40,Caravelas,BR,1578450798,-17.73,-39.27,23.0,296.15,296.15,1013,94,59,7.807130000000001,73.4
41,Agadir,MA,1578450798,30.42,-9.58,9.0,282.15,282.15,1025,76,0,6.9347,48.2
42,Constitucion,MX,1578450798,23.99,-104.67,12.0,285.15,285.15,1027,32,5,4.6977,53.6
43,Arinos,BR,1578450798,-15.92,-46.11,22.060000000000002,295.21,295.21,1013,90,100,1.36457,71.708
44,Ponta do Sol,BR,1578450798,-20.63,-46.0,20.600000000000023,293.75,293.75,1013,95,100,2.37122,69.08000000000004
45,Pontianak,ID,1578450798,-0.02,109.34,27.0,300.15,300.15,1010,83,75,3.3555,80.6
46,Georgetown,GY,1578450798,6.8,-58.16,26.200000000000045,298.15,300.15,1014,94,75,4.6977,80.6
47,Busselton,AU,1578450799,-33.64,115.35,26.260000000000048,297.59,302.59,1002,21,0,13.33252,84.99199999999999
48,Mangaratiba,BR,1578450799,-22.96,-44.04,26.600000000000023,299.15,300.15,1009,83,75,6.9347,80.6
49,Lavrentiya,RU,1578450799,65.58,-170.99,-24.539999999999964,248.61,248.61,1024,95,0,3.5792,-12.171999999999933
50,Sao Felix do Xingu,BR,1578450799,-6.64,-51.99,23.27000000000004,296.42,296.42,1012,84,33,1.65538,73.88600000000008
51,El Retorno,CO,1578450799,2.33,-72.63,22.78000000000003,295.93,295.93,1010,67,100,3.04232,73.00400000000005
52,Ancud,CL,1578450799,-41.87,-73.83,10.0,283.15,283.15,1003,81,40,13.8694,50.0
53,Madimba,CM,1578450800,4.42,9.93,27.0,300.15,300.15,1010,94,40,2.16989,80.6
54,Kavaratti,IN,1578450800,10.57,72.64,27.650000000000034,300.8,300.8,1013,72,1,11.54292,81.77000000000007
55,Mega,ET,1578450800,4.06,38.32,17.650000000000034,290.8,290.8,1013,83,65,9.50725,63.77000000000007
56,Sitka,US,1578450800,37.17,-99.65,3.330000000000041,276.48,276.48,1025,48,0,1.99093,37.99400000000007
57,Nobeoka,JP,1578450800,32.66,131.66,12.460000000000036,285.61,285.61,1013,58,2,18.231550000000002,54.42800000000007
58,Monforte de Lemos,ES,1578450800,42.52,-7.51,5.710000000000036,277.59,279.82,1030,59,70,1.00665,44.00600000000003
59,Qaanaaq,GL,1578450800,77.48,-69.36,-31.289999999999964,241.86,241.86,987,82,0,2.08041,-24.32199999999994
60,Luau,CD,1578450800,-10.7,22.23,18.220000000000027,291.37,291.37,1013,96,100,3.01995,64.79600000000005
61,Codrington,AU,1578450801,-28.95,153.24,31.629999999999995,302.15,306.15,1013,36,0,5.8162,91.4
62,Kuytun,RU,1578450801,54.34,101.51,-16.41999999999996,256.73,256.73,1031,92,0,3.33313,2.4440000000000737
63,Klaksvik,FO,1578450801,62.23,-6.59,2.0,275.15,275.15,978,80,100,25.278100000000002,35.6
64,Pisco,PE,1578450801,-13.71,-76.2,21.510000000000048,294.26,295.15,1014,88,90,12.750900000000001,71.6
65,Tuktoyaktuk,CA,1578450801,69.44,-133.03,-35.99999999999997,237.15,237.15,1025,73,40,13.8694,-32.799999999999955
66,Casablanca,MA,1578450251,33.6,-7.62,9.230000000000018,277.15,287.04,1027,93,0,3.3555,57.00200000000008
67,Cholet,FR,1578450801,47.06,-0.88,11.189999999999998,284.15,284.82,1029,100,75,10.2902,53.00600000000003
68,Muddebihal,IN,1578450801,16.33,76.13,21.120000000000005,294.27,294.27,1016,80,0,12.12454,70.01600000000002
69,Cape Town,ZA,1578450601,-33.93,18.42,18.900000000000034,290.37,293.15,1006,100,90,5.8162,68.0
70,Airai,TL,1578450802,-8.93,125.41,28.78000000000003,301.93,301.93,1007,49,67,4.138450000000001,83.80400000000006
71,Conde,BR,1578450802,-11.81,-37.61,26.49000000000001,299.64,299.64,1012,78,0,13.981250000000001,79.68200000000002
72,Talnakh,RU,1578450802,69.49,88.39,-16.0,257.15,257.15,1008,84,75,17.896,3.1999999999999993
73,Mar del Plata,AR,1578450576,-46.43,-67.52,14.129999999999995,287.28,287.28,989,35,0,34.98668,57.434
74,Atuona,PF,1578450802,-9.8,-139.03,27.370000000000005,300.52,300.52,1011,75,2,15.077380000000002,81.26600000000002
75,Taoudenni,ML,1578450802,22.68,-3.98,11.740000000000009,284.89,284.89,1018,25,0,9.99939,53.13200000000002
76,Biankouma,CI,1578450802,7.74,-7.61,19.140000000000043,292.29,292.29,1012,43,0,2.16989,66.45200000000008
77,Gat,SN,1578450803,14.69,-16.54,18.0,291.15,291.15,1015,36,31,16.1064,64.4
78,Erzin,TR,1578450803,36.95,36.2,8.110000000000014,281.15,281.48,1010,100,75,5.8162,46.99400000000007
79,Dubna,RU,1578450803,56.76,37.14,0.060000000000002274,273.21,273.21,1020,95,100,9.12696,32.108000000000004
80,Todos Santos,MX,1578450803,23.45,-110.23,18.120000000000005,287.04,293.71,1016,77,5,5.8162,69.00800000000001
81,Great Falls,US,1578450803,47.5,-111.29,4.220000000000027,275.15,280.37,1008,69,40,11.4087,44.99600000000005
82,Kiama,AU,1578450803,-34.67,150.86,24.090000000000032,296.48,298.15,1016,57,3,13.8694,77.0
83,Kodiak,US,1578450803,39.95,-94.76,2.8600000000000136,274.26,278.15,1023,59,1,4.6977,41.0
84,Palaikastron,GR,1578450803,35.2,26.25,9.439999999999998,282.59,282.59,1012,74,18,15.994550000000002,48.992
85,Pitkyaranta,RU,1578450803,61.57,31.48,3.160000000000025,276.31,276.31,1008,90,100,20.3567,37.688000000000045
86,Mahebourg,MU,1578450804,-20.41,57.7,25.07000000000005,297.59,299.15,1012,88,75,3.19891,78.80000000000001
87,Kununurra,AU,1578450804,-15.77,128.74,32.0,305.15,305.15,1007,62,75,12.750900000000001,89.6
88,Margate,AU,1578450804,-43.03,147.26,23.05000000000001,294.15,297.59,1019,43,20,16.1064,75.99199999999999
89,Lac du Bonnet,CA,1578450804,50.25,-96.06,-21.109999999999985,252.04,252.04,1028,81,100,7.00181,-5.997999999999976
90,Chuy,UY,1578450804,-33.69,-53.46,18.29000000000002,291.44,291.44,1012,62,0,8.43349,64.92200000000004
91,Ferme-Neuve,CA,1578450804,46.7,-75.45,-3.7899999999999636,269.36,269.36,1009,93,100,6.97944,25.178000000000065
92,Le Port,FR,1578450805,42.87,1.37,2.480000000000018,273.15,278.71,1031,92,68,3.33313,42.008
93,Bredasdorp,ZA,1578450805,-34.53,20.04,17.910000000000025,289.82,293.15,1005,94,0,3.3555,68.0
94,Torbay,CA,1578450805,47.66,-52.73,-5.839999999999975,265.93,268.15,1016,73,90,9.1717,23.0
95,Valdivia,CL,1578450805,-39.81,-73.25,16.0,289.15,289.15,1009,77,90,11.4087,60.8
96,Nikolskoye,RU,1578450805,59.7,30.79,3.230000000000018,276.15,276.48,1013,86,90,8.948,37.99400000000007
97,Carnarvon,ZA,1578450805,-30.97,22.13,17.99000000000001,291.14,291.14,1009,82,69,9.194070000000002,64.38200000000002
98,Lasa,CY,1578450805,34.92,32.53,9.950000000000045,282.04,284.15,1007,81,20,4.6977,51.8
99,Upernavik,GL,1578450805,72.79,-56.15,-26.869999999999976,246.28,246.28,990,71,99,6.711,-16.365999999999957
100,Baykit,RU,1578450806,61.68,96.39,-19.42999999999998,253.72,253.72,1025,99,72,1.47642,-2.973999999999961
101,Esfarayen,IR,1578450806,37.08,57.51,-5.0,268.15,268.15,1020,85,0,2.237,23.0
102,La Belgica,BO,1578450806,-17.57,-63.23,22.0,295.15,295.15,1011,100,90,9.1717,71.6
103,Talaya,RU,1578450806,55.79,84.89,-7.659999999999968,265.15,265.93,1028,92,40,6.711,19.004000000000055
104,Hambantota,LK,1578450806,6.12,81.12,25.0,298.15,298.15,1011,100,75,8.0532,77.0
105,Tessalit,ML,1578450806,20.2,1.01,14.470000000000027,287.62,287.62,1017,16,3,16.62091,58.04600000000005
106,Wilmington,US,1578450587,39.75,-75.55,0.5500000000000114,272.59,274.82,1014,86,90,8.0532,35.00600000000003
107,Kapaa,US,1578450806,22.08,-159.32,25.460000000000036,296.48,300.15,1020,65,75,21.922600000000003,80.6
108,Milkovo,BG,1578450806,41.53,24.68,-2.659999999999968,267.15,273.71,1028,67,0,1.1185,33.008
109,Port Hawkesbury,CA,1578450807,45.62,-61.36,-6.149999999999977,262.59,269.82,1017,92,20,1.67775,26.00600000000003
110,Severo-Kurilsk,RU,1578450807,50.68,156.12,-5.639999999999986,267.51,267.51,1003,83,73,16.64328,21.848000000000024
111,Kieta,PG,1578450807,-6.22,155.63,29.83000000000004,302.98,302.98,1004,72,34,8.25453,85.69400000000007
112,Rovaniemi,FI,1578450807,66.5,25.72,1.0,274.15,274.15,986,96,90,17.2249,33.8
113,Pundaguitan,PH,1578450807,6.37,126.17,26.620000000000005,299.77,299.77,1010,78,59,12.929860000000001,79.91600000000001
114,Batman,TR,1578450807,37.88,41.13,6.0,279.15,279.15,1016,75,75,9.1717,42.8
115,Norman Wells,CA,1578450807,65.28,-126.83,-42.99999999999997,230.15,230.15,1026,64,5,2.237,-45.39999999999995
116,Komsomolskiy,RU,1578450807,67.55,63.78,-17.169999999999987,255.98,255.98,1018,97,96,7.56106,1.0940000000000225
117,Sao Luis do Quitunde,BR,1578450808,-9.32,-35.56,24.0,297.15,297.15,1013,88,0,4.6977,75.2
118,Port Blair,IN,1578450808,11.67,92.75,26.0,299.15,299.15,1012,78,20,3.3555,78.80000000000001
119,Barrow,AR,1578450808,-38.31,-60.23,19.060000000000002,292.21,292.21,1002,48,0,10.62575,66.308
120,Deputatskiy,RU,1578450808,69.3,139.9,-22.96999999999997,250.18,250.18,1011,94,97,3.75816,-9.345999999999947
121,Kaitangata,NZ,1578450808,-46.28,169.85,15.560000000000002,288.71,288.71,1013,61,100,7.00181,60.00800000000001
122,Cherskiy,RU,1578450808,68.75,161.3,-28.609999999999985,244.54,244.54,1014,72,31,8.81378,-19.497999999999976
123,Nanortalik,GL,1578450808,60.14,-45.24,-1.0600000000000023,272.09,272.09,990,69,100,35.814370000000004,30.091999999999995
124,Kaeo,NZ,1578450808,-35.1,173.78,23.680000000000007,294.82,298.71,1015,42,70,8.008460000000001,78.00800000000001
125,Antalaha,MG,1578450808,-14.9,50.28,26.640000000000043,299.79,299.79,1013,79,49,9.35066,79.95200000000008
126,Lagoa,PT,1578450809,37.14,-8.45,9.270000000000039,279.15,285.37,1029,93,0,4.6977,53.99600000000005
127,Saint-Philippe,CA,1578450809,45.36,-73.48,-3.75,267.04,272.15,1012,73,90,2.237,30.2
128,Rawson,AR,1578450809,-43.3,-65.11,18.52000000000004,291.67,291.67,994,53,9,19.77508,65.33600000000007
129,Kasongo-Lunda,CD,1578450809,-6.48,16.82,18.74000000000001,291.89,291.89,1012,99,100,1.72249,65.73200000000003
130,Podgorenskiy,RU,1578450809,50.4,39.64,-9.289999999999964,263.86,263.86,1028,94,0,7.85187,15.278000000000066
131,Tumarbong,PH,1578450809,10.38,119.46,30.04000000000002,303.19,303.19,1011,61,89,7.91898,86.07200000000003
132,Manakara,MG,1578450809,-22.14,48.01,24.400000000000034,297.55,297.55,1014,88,53,0.78295,75.92000000000007
133,Khatanga,RU,1578450809,71.98,102.47,-15.359999999999957,257.79,257.79,1007,95,100,10.021760000000002,4.3520000000000785
134,Christchurch,NZ,1578450561,-43.53,172.64,16.30000000000001,288.15,290.93,1015,55,100,5.8162,64.00400000000005
135,Mabaruma,GY,1578450810,8.2,-59.78,22.30000000000001,295.45,295.45,1015,99,39,2.0133,72.14000000000001
136,Bilma,NE,1578450810,18.69,12.92,11.350000000000023,284.5,284.5,1019,36,42,11.8561,52.43000000000004
137,Katsuura,JP,1578450810,33.93,134.5,15.760000000000048,285.15,291.15,1004,52,20,27.515100000000004,64.4
138,Nantucket,US,1578450810,41.28,-70.1,3.430000000000007,275.15,278.15,1011,69,90,11.4087,41.0
139,Castro,CL,1578450810,-42.48,-73.76,10.0,283.15,283.15,1003,81,40,13.8694,50.0
140,Mogadishu,SO,1578450617,2.04,45.34,27.060000000000002,300.21,300.21,1011,81,100,21.34098,80.708
141,Vao,EE,1578450811,59.1,26.19,3.1000000000000227,276.25,276.25,1013,84,100,14.495760000000002,37.58000000000004
142,Pangnirtung,CA,1578450811,66.15,-65.72,-41.70999999999998,231.44,231.44,999,73,10,1.40931,-43.07799999999996
143,Port Augusta,AU,1578450811,-32.49,137.76,33.360000000000014,304.15,308.71,1013,33,0,6.9347,96.00800000000001
144,Pokhvistnevo,RU,1578450811,53.65,52.12,-13.109999999999957,260.04,260.04,1029,99,93,0.60399,8.402000000000076
145,Padang,ID,1578450811,-0.92,100.36,27.189999999999998,300.34,300.34,1011,62,100,4.51874,80.94200000000001
146,Beihai,CN,1578450811,38.95,121.19,-2.0,271.15,271.15,1026,63,75,20.133000000000003,28.4
147,Boden,SE,1578450811,65.83,21.69,2.0,275.15,275.15,985,100,100,16.1064,35.6
148,Victoria,BN,1578450517,5.28,115.24,29.120000000000005,302.04,303.15,1010,74,75,5.8162,86.0
149,Faanui,PF,1578450812,-16.48,-151.75,27.650000000000034,300.8,300.8,1010,78,4,18.43288,81.77000000000007
150,Manbij,SY,1578450812,36.53,37.96,6.0,279.15,279.15,1011,93,90,4.6977,42.8
151,New Norfolk,AU,1578450812,-42.78,147.06,23.05000000000001,294.15,297.59,1019,43,20,16.1064,75.99199999999999
152,Esfahan,IR,1578450812,32.66,51.68,-7.0,266.15,266.15,1022,85,0,4.6977,19.4
153,Tasiilaq,GL,1578450812,65.61,-37.64,-15.870000000000005,257.28,257.28,969,43,80,21.6989,3.4339999999999904
154,Manzhouli,CN,1578450812,49.6,117.43,-16.239999999999952,256.91,256.91,1033,90,29,5.63724,2.768000000000086
155,Cabo San Lucas,MX,1578450808,22.89,-109.91,18.700000000000045,289.26,293.71,1017,82,20,1.40931,69.00800000000001
156,Ondangwa,NA,1578450812,-17.91,15.98,24.0,297.15,297.15,1014,53,68,4.6977,75.2
157,Kenai,US,1578450812,60.55,-151.26,-21.849999999999966,248.15,253.15,1015,83,1,6.9347,-3.9999999999999503
158,High Level,CA,1578450813,58.52,-117.13,-24.99999999999997,248.15,248.15,1018,75,90,2.237,-12.99999999999995
159,Sorong,ID,1578450813,-0.86,131.25,27.150000000000034,300.3,300.3,1008,92,100,4.42926,80.87000000000006
160,Dandong,CN,1578450813,40.12,124.37,-4.949999999999989,268.2,268.2,1019,56,99,16.79987,23.090000000000018
161,Longyearbyen,NO,1578450813,78.22,15.63,-1.0,272.15,272.15,976,74,20,36.9105,30.2
162,Ilulissat,GL,1578450813,69.22,-51.1,-18.99999999999997,254.15,254.15,984,53,23,13.8694,-2.199999999999953
163,Khandyga,RU,1578450813,62.65,135.58,-19.849999999999966,253.3,253.3,1014,98,98,1.74486,-3.72999999999994
164,Dudinka,RU,1578450725,69.41,86.18,-16.0,257.15,257.15,1008,84,75,17.896,3.1999999999999993
165,Tacuarembo,UY,1578450814,-31.73,-55.98,16.930000000000007,290.08,290.08,1010,44,0,0.78295,62.47400000000002
166,Den Helder,NL,1578450814,52.96,4.76,10.050000000000011,282.04,284.26,1016,100,90,26.396600000000003,51.998000000000026
167,Turochak,RU,1578450814,52.26,87.12,-10.169999999999959,262.98,262.98,1032,92,100,1.7896,13.694000000000074
168,Hermanus,ZA,1578450814,-34.42,19.24,17.82000000000005,289.82,292.04,1001,96,0,7.56106,66.00200000000008
169,Poum,MK,1578450814,41.28,20.71,-3.4399999999999977,269.71,269.71,1028,35,0,4.51874,25.808000000000003
170,Avarua,CK,1578450814,-21.21,-159.78,28.0,301.15,301.15,1013,74,100,8.0532,82.4
171,Provideniya,RU,1578450814,64.42,-173.23,-24.319999999999965,248.83,248.83,1024,91,0,0.87243,-11.77599999999994
172,Southbridge,US,1578450764,42.08,-72.03,-0.12000000000000455,271.48,274.82,1012,58,90,4.6977,35.00600000000003
173,Arraial do Cabo,BR,1578450815,-22.97,-42.02,26.0,299.15,299.15,1010,88,40,3.3555,78.80000000000001
174,Puerto Ayora,EC,1578450815,-0.74,-90.35,24.439999999999998,297.59,297.59,1012,82,32,2.99758,75.99199999999999
175,Coquimbo,CL,1578450815,-29.95,-71.34,17.0,290.15,290.15,1015,82,0,5.8162,62.6
176,Ngunguru,NZ,1578450815,-35.62,174.5,22.82000000000005,294.82,297.04,1016,47,99,8.99274,75.00200000000008
177,Makakilo City,US,1578450815,21.35,-158.09,24.480000000000018,296.15,299.15,1019,73,90,13.8694,78.80000000000001
178,Vanimo,PG,1578450815,-2.67,141.3,27.170000000000016,300.32,300.32,1007,84,100,22.168670000000002,80.90600000000003
179,Mangan,IN,1578450816,27.5,88.54,5.720000000000027,278.87,278.87,1019,69,93,2.79625,42.29600000000005
180,Balakhta,RU,1578450816,55.38,91.62,-13.0,260.15,260.15,1032,96,100,1.70012,8.599999999999998
181,Urengoy,RU,1578450816,65.96,78.37,-19.169999999999987,253.98,253.98,1017,96,96,8.52297,-2.505999999999979
182,Kavieng,PG,1578450816,-2.57,150.8,27.83000000000004,300.98,300.98,1005,83,100,13.24304,82.09400000000008
183,Oistins,BB,1578450816,13.07,-59.53,26.0,299.15,299.15,1017,74,40,17.2249,78.80000000000001
184,Palmas,BR,1578450816,-10.18,-48.33,25.0,298.15,298.15,1012,94,31,2.237,77.0
185,Yar-Sale,RU,1578450785,66.83,70.83,-18.579999999999984,254.57,254.57,1017,85,0,4.80955,-1.4439999999999742
186,Sheregesh,RU,1578450817,52.93,87.98,-10.939999999999998,262.21,262.21,1032,85,100,2.4607,12.308000000000003
187,Koumac,NC,1578450817,-20.56,164.28,26.52000000000004,299.67,299.67,1012,61,99,1.61064,79.73600000000008
188,Sinnamary,GF,1578450817,5.38,-52.96,27.010000000000048,300.16,300.16,1014,83,34,18.36577,80.61800000000008
189,Chegdomyn,RU,1578450817,51.13,133.04,-17.779999999999973,255.37,255.37,1020,91,98,1.87908,-0.0039999999999551505
190,Saint-Pierre,FR,1578450817,48.95,4.24,8.010000000000048,279.82,282.15,1027,100,90,12.750900000000001,48.2
191,Van,TR,1578450631,38.51,43.37,-5.0,268.15,268.15,1016,67,75,4.6977,23.0
192,Angoram,PG,1578450817,-4.06,144.07,24.04000000000002,297.19,297.19,1008,98,100,2.59492,75.27200000000005
193,Fukue,JP,1578450818,35.03,136.69,13.810000000000002,284.15,289.26,1002,77,20,24.1596,60.998000000000026
194,Dingle,PH,1578450818,11.0,122.67,27.53000000000003,300.68,300.68,1011,76,100,11.76662,81.55400000000006
195,Mantua,IT,1578450818,45.16,10.79,-1.2299999999999613,270.37,273.15,1030,100,90,6.9347,32.0
196,Bonavista,CA,1578450818,48.65,-53.11,-5.169999999999959,267.98,267.98,1017,83,81,10.871820000000001,22.694000000000074
197,Meulaboh,ID,1578450533,4.14,96.13,26.77000000000004,299.92,299.92,1011,68,67,6.35308,80.18600000000006
198,Komsomolets,RU,1578450818,52.77,41.29,-7.71999999999997,265.43,265.43,1028,89,32,4.2503,18.104000000000052
199,Sola,TZ,1578450819,-3.17,33.8,17.700000000000045,290.85,290.85,1013,84,98,4.27267,63.860000000000085
200,Shahr-e Babak,IR,1578450635,30.12,55.12,2.490000000000009,275.64,275.64,1021,48,0,6.80048,36.48200000000001
201,Dubbo,AU,1578450819,-32.25,148.6,37.0,310.15,310.15,1013,23,0,12.750900000000001,98.60000000000001
202,Melo,UY,1578450819,-32.37,-54.17,15.950000000000045,289.1,289.1,1012,74,0,7.20314,60.71000000000008
203,Tutoia,BR,1578450819,-2.76,-42.27,23.55000000000001,296.7,296.7,1012,92,18,3.01995,74.39000000000001
204,Malaya Serdoba,RU,1578450819,52.47,44.96,-12.009999999999991,261.14,261.14,1029,96,48,4.49637,10.382000000000016
205,Necochea,AR,1578450789,-38.55,-58.74,15.560000000000002,288.71,288.71,995,77,0,9.99939,60.00800000000001
206,Sao Filipe,CV,1578450819,14.9,-24.5,20.03000000000003,293.18,293.18,1016,72,100,19.66323,68.05400000000006
207,Placer,US,1578450819,42.63,-123.32,4.720000000000027,275.15,281.15,1017,93,90,5.8162,46.4
208,Tiksi,RU,1578450820,71.64,128.87,-22.629999999999967,250.52,250.52,1008,89,100,5.346430000000001,-8.733999999999945
209,Damietta,EG,1578450820,31.42,31.81,10.0,283.15,283.15,1015,87,40,23.041100000000004,50.0
210,Chinhoyi,ZW,1578450820,-17.36,30.19,19.07000000000005,292.22,292.22,1012,86,88,4.78718,66.32600000000009
211,Ribeira Grande,PT,1578450820,38.52,-28.7,16.310000000000002,289.46,289.46,1027,92,64,17.515710000000002,61.358000000000004
212,Hami,CN,1578450820,42.84,93.51,-7.599999999999966,265.55,265.55,1030,52,0,3.22128,18.32000000000006
213,Dikson,RU,1578450820,73.51,80.55,-19.159999999999968,253.99,253.99,1008,97,95,8.47823,-2.4879999999999427
214,Hay River,CA,1578450621,60.82,-115.79,-25.99999999999997,247.15,247.15,1023,75,90,2.48307,-14.799999999999947
215,Leningradskiy,RU,1578450546,69.38,178.42,-27.19999999999999,245.95,245.95,1017,89,51,9.90991,-16.95999999999998
216,Kungurtug,RU,1578450821,50.6,97.53,-20.48999999999998,252.66,252.66,1038,76,0,0.24607,-4.8819999999999695
217,Mount Isa,AU,1578450821,-20.73,139.49,37.0,310.15,310.15,1009,32,17,6.9347,98.60000000000001
218,Vila Franca do Campo,PT,1578450821,37.72,-25.43,18.0,291.15,291.15,1030,93,20,12.750900000000001,64.4
219,Marawi,PH,1578450821,8.0,124.29,27.78000000000003,300.93,300.93,1011,68,92,4.004230000000001,82.00400000000005
220,Hithadhoo,MV,1578450821,-0.6,73.08,28.210000000000036,301.36,301.36,1011,76,94,12.41535,82.77800000000008
221,Porto Nacional,BR,1578450780,-10.7,-48.41,25.0,298.15,298.15,1012,94,0,2.237,77.0
222,Kahului,US,1578450690,20.89,-156.47,23.0,293.15,299.15,1018,61,40,19.4619,78.80000000000001
223,Hohhot,CN,1578450821,40.81,111.65,-14.0,259.15,259.15,1026,71,7,4.474,6.800000000000001
224,Gizo,IL,1578450821,31.8,34.94,8.490000000000009,278.15,284.15,1014,57,40,18.3434,51.8
225,Maniitsoq,GL,1578450822,65.42,-52.9,-18.559999999999974,254.59,254.59,988,99,100,12.370610000000001,-1.4079999999999515
226,Salalah,OM,1578450822,17.01,54.1,24.0,297.15,297.15,1016,53,0,10.2902,75.2
227,The Valley,AI,1578450822,18.22,-63.06,25.189999999999998,298.15,298.71,1019,78,40,16.1064,78.00800000000001
228,Ixtapa,MX,1578450822,20.71,-105.21,23.939999999999998,297.04,297.15,1014,73,75,3.3555,75.2
229,Merauke,ID,1578450822,-8.49,140.4,31.53000000000003,304.68,304.68,1006,66,100,6.4873,88.75400000000005
230,Mackenzie,CA,1578450822,55.34,-123.09,-13.0,260.15,260.15,1001,78,90,13.8694,8.599999999999998
231,Aleksandro-Nevskiy,RU,1578450822,53.48,40.21,-5.7099999999999795,267.44,267.44,1027,95,100,6.39782,21.722000000000037
232,Cayenne,GF,1578450823,4.94,-52.33,27.0,300.15,300.15,1014,83,75,6.9347,80.6
233,Ust-Tsilma,RU,1578450823,65.44,52.15,-12.139999999999986,261.01,261.01,1012,94,94,6.554410000000001,10.148000000000025
234,Valparaiso,US,1578450715,41.47,-87.06,1.2000000000000455,273.71,275.37,1017,61,40,10.2902,35.99600000000005
235,Brae,GB,1578450823,60.4,-1.35,5.0,278.15,278.15,990,66,100,29.975800000000003,41.0
236,Aksarka,RU,1578450823,66.56,67.8,-19.22999999999999,253.92,253.92,1018,88,0,6.82285,-2.613999999999983
237,Eureka,US,1578450748,40.8,-124.16,8.680000000000007,279.26,283.15,1018,81,90,8.0532,50.0
238,Sur,OM,1578450823,22.57,59.53,19.420000000000016,292.57,292.57,1018,58,0,8.948,66.95600000000003
239,Saint-Georges,CA,1578450824,46.12,-70.67,-10.189999999999998,262.59,263.71,1014,90,100,1.00665,15.008000000000003
240,Male,UA,1578450824,50.74,33.7,-4.96999999999997,268.18,268.18,1029,87,0,2.66203,23.054000000000052
241,Nicoya,CR,1578450602,10.15,-85.45,24.450000000000045,295.37,301.15,1012,58,0,29.975800000000003,82.4
242,Kijang,KR,1578450824,35.24,129.21,11.0,284.15,284.15,1012,50,75,18.3434,51.8
243,Chokurdakh,RU,1578450824,70.62,147.9,-32.75999999999999,240.39,240.39,1012,95,23,5.50302,-26.967999999999982
244,Havoysund,NO,1578450824,71.0,24.66,1.0,274.15,274.15,976,80,100,40.266000000000005,33.8
245,Luderitz,NA,1578450824,-26.65,15.16,16.0,289.15,289.15,1009,100,100,5.8162,60.8
246,Vostok,RU,1578450824,46.45,135.83,-7.329999999999984,265.82,265.82,1015,78,100,3.6463099999999997,18.806000000000026
247,La Ronge,CA,1578450824,55.1,-105.3,-30.99999999999997,242.15,242.15,1024,74,5,2.41596,-23.799999999999947
248,Havre-Saint-Pierre,CA,1578450825,50.23,-63.6,-13.0,260.15,260.15,1013,84,90,3.3555,8.599999999999998
249,Algiers,US,1578450817,29.94,-90.04,8.840000000000032,278.15,287.15,1029,47,1,4.6977,57.2
250,Saint-Augustin,CA,1578450825,45.63,-73.98,-3.919999999999959,267.04,270.93,1011,73,90,4.6977,28.004000000000055
251,Ahipara,NZ,1578450825,-35.17,173.16,25.560000000000002,298.71,298.71,1016,55,23,5.010880000000001,78.00800000000001
252,Mitsamiouli,KM,1578450825,-11.38,43.28,28.100000000000023,301.25,301.25,1012,72,0,1.92382,82.58000000000004
253,Byron Bay,AU,1578450825,-28.65,153.62,30.660000000000025,302.15,306.15,1014,58,0,19.4619,91.4
254,Panacan,PH,1578450825,7.15,125.66,29.0,302.15,302.15,1012,70,40,11.4087,84.2
255,Mehamn,NO,1578450825,71.03,27.85,-0.12999999999999545,273.02,273.02,979,86,100,17.71704,31.76600000000001
256,Linxia,CN,1578450826,35.6,103.21,-4.46999999999997,268.68,268.68,1019,70,76,3.8029,23.95400000000005
257,Ambovombe,MG,1578450826,-25.18,46.09,22.420000000000016,295.57,295.57,1013,85,0,3.78053,72.35600000000002
258,Lata,IN,1578450826,30.78,78.62,-10.529999999999973,262.62,262.62,1017,97,100,7.314990000000001,13.04600000000005
259,Quatre Cocos,MU,1578450826,-20.21,57.76,25.150000000000034,297.59,299.15,1012,88,75,5.32406,78.80000000000001
260,Bathsheba,BB,1578450826,13.22,-59.52,26.0,299.15,299.15,1017,74,40,17.2249,78.80000000000001
261,Port Elizabeth,US,1578450826,39.31,-74.98,1.1899999999999977,273.15,275.37,1013,86,90,11.4087,35.99600000000005
262,Zeya,RU,1578450826,53.74,127.27,-20.419999999999987,252.73,252.73,1024,87,0,1.85671,-4.755999999999979
263,Kruisfontein,ZA,1578450827,-34.0,24.73,18.83000000000004,291.98,291.98,1007,93,100,5.1451,65.89400000000008
264,Berlevag,NO,1578450827,70.86,29.09,3.480000000000018,276.63,276.63,980,75,100,20.75936,38.26400000000003
265,Kerchevskiy,RU,1578450827,59.95,56.29,-16.129999999999995,257.02,257.02,1026,98,93,5.54776,2.966000000000008
266,Mulchen,CL,1578450827,-37.72,-72.23,11.890000000000043,285.04,285.04,1012,88,3,7.493950000000001,53.40200000000008
267,Parkes,AU,1578450827,-33.14,148.18,38.89000000000004,312.04,312.04,1013,21,0,1.00665,102.00200000000008
268,Chumikan,RU,1578450827,54.72,135.31,-12.659999999999968,260.49,260.49,1017,79,0,7.74002,9.212000000000057
269,Balabac,PH,1578450827,7.99,117.06,28.640000000000043,301.79,301.79,1011,73,33,13.13119,83.55200000000008
270,Vavoua,CI,1578450828,7.38,-6.48,20.180000000000007,293.33,293.33,1011,37,0,4.22793,68.32400000000001
271,Bensonville,LR,1578450828,6.45,-10.61,23.0,296.15,296.15,1012,94,20,2.39359,73.4
272,Hamilton,CA,1578450050,43.26,-79.87,1.4500000000000455,272.15,276.48,1010,86,90,16.1064,37.99400000000007
273,Grand Gaube,MU,1578450828,-20.01,57.66,25.24000000000001,297.59,299.15,1012,88,75,4.96614,78.80000000000001
274,Mareeba,AU,1578450828,-16.99,145.42,28.980000000000018,300.15,304.26,1010,88,75,12.750900000000001,87.99800000000002
275,Kentville,CA,1578450828,45.08,-64.5,-1.7699999999999818,269.26,273.15,1018,80,90,3.3555,32.0
276,Erenhot,CN,1578450829,43.65,111.97,-11.629999999999995,261.52,261.52,1035,70,0,3.87001,11.066000000000006
277,Kidal,ML,1578450829,18.44,1.41,14.939999999999998,288.09,288.09,1016,16,33,15.36819,58.891999999999996
278,Port Moresby,PG,1578450829,-9.47,147.16,33.0,306.15,306.15,1009,59,40,5.8162,91.4
279,Bambous Virieux,MU,1578450829,-20.34,57.76,25.100000000000023,297.59,299.15,1012,88,75,5.99516,78.80000000000001
280,Tocopilla,CL,1578450829,-22.09,-70.2,12.400000000000034,285.55,285.55,1018,50,0,3.17654,54.320000000000064
281,Pointe Michel,DM,1578450829,15.25,-61.38,26.360000000000014,299.51,299.51,1017,78,0,20.133000000000003,79.44800000000004
282,Batagay-Alyta,RU,1578450829,67.8,130.41,-24.349999999999966,248.8,248.8,1012,77,92,3.10943,-11.829999999999941
283,Port Hardy,CA,1578450830,50.7,-127.42,4.0,277.15,277.15,1005,86,90,8.0532,39.2
284,Santa Cruz de Tenerife,ES,1578450830,28.47,-16.25,13.689999999999998,284.15,289.82,1028,81,0,4.6977,62.00600000000003
285,Harwich,US,1578450830,41.69,-70.08,2.910000000000025,274.15,277.59,1011,69,90,11.4087,39.992
286,Porto Velho,BR,1578450830,-8.75,-63.87,27.0,300.15,300.15,1010,78,40,3.3555,80.6
287,Qom,IR,1578450830,34.64,50.88,2.340000000000032,275.49,275.49,1022,73,0,1.58827,36.21200000000006
288,Fort-Shevchenko,KZ,1578450830,44.51,50.26,0.8300000000000409,273.98,273.98,1021,67,100,13.936510000000002,33.49400000000007
289,Yulara,AU,1578450831,-25.24,130.99,36.0,309.15,309.15,1011,19,99,16.1064,96.8
290,Henties Bay,NA,1578450831,-22.12,14.28,17.78000000000003,290.93,290.93,1013,91,0,1.99093,64.00400000000005
291,Saldanha,PT,1578450831,41.42,-6.55,3.0,276.15,276.15,1031,75,21,1.49879,37.4
292,Itoman,JP,1578450831,26.12,127.67,18.960000000000036,292.04,292.15,1021,82,75,25.278100000000002,66.2
293,Paamiut,GL,1578450831,61.99,-49.67,-7.75,265.4,265.4,991,67,100,20.33433,18.049999999999997
294,Acapulco,MX,1578450752,16.86,-99.88,26.0,299.15,299.15,1014,83,20,3.3555,78.80000000000001
295,Bahia Blanca,AR,1578450794,-38.72,-62.27,23.55000000000001,296.7,296.7,1001,25,0,13.623330000000001,74.39000000000001
296,Pumiao,CN,1578450831,22.75,108.49,20.0,293.15,293.15,1020,94,20,2.237,68.0
297,Kilindoni,TZ,1578450832,-7.91,39.67,28.350000000000023,301.5,301.5,1011,77,79,7.87424,83.03000000000004
298,San Cristobal,HN,1578450832,14.68,-86.92,16.620000000000005,289.77,289.77,1020,99,39,3.26602,61.91600000000001
299,Aras,ES,1578450832,42.56,-2.36,3.0300000000000296,273.15,280.93,1030,75,39,10.2902,46.004000000000055
300,Soyo,AO,1578450832,-6.13,12.37,25.980000000000018,299.13,299.13,1009,83,100,1.02902,78.76400000000004
301,Laguna,BZ,1578450832,16.17,-88.94,21.0,294.15,294.15,1021,100,90,0.6711,69.80000000000001
302,Lebu,ET,1578450832,8.96,38.73,12.0,285.15,285.15,1027,58,40,13.8694,53.6
303,Clyde River,CA,1578450832,70.47,-68.59,-25.99999999999997,247.15,247.15,989,56,90,5.8162,-14.799999999999947
304,Svetlogorsk,RU,1578450832,53.14,59.15,-6.0,267.15,267.15,1025,92,90,8.948,21.2
305,Sharlyk,RU,1578450833,52.93,54.74,-11.819999999999993,261.33,261.33,1029,98,99,4.38452,10.72400000000001
306,Santo Antonio do Sudoeste,BR,1578450833,-26.07,-53.73,19.720000000000027,292.87,292.87,1009,95,0,2.86336,67.49600000000005
307,Moranbah,AU,1578450833,-22.0,148.04,34.60000000000002,307.75,307.75,1010,26,90,14.7642,94.28000000000004
308,Hobyo,SO,1578450833,5.35,48.53,24.680000000000007,297.83,297.83,1013,80,100,11.36396,76.424
309,Mumford,GH,1578450833,5.26,-0.76,22.939999999999998,296.09,296.09,1011,80,26,3.22128,73.292
310,Leh,IN,1578450834,34.16,77.58,-16.399999999999977,256.75,256.75,1024,81,94,3.66868,2.4800000000000395
311,Camocim,BR,1578450834,-2.9,-40.84,24.150000000000034,297.3,297.3,1012,91,95,1.85671,75.47000000000006
312,Gazanjyk,TM,1578450834,39.24,55.52,2.2000000000000455,275.35,275.35,1019,62,0,7.02418,35.96000000000008
313,Bandarbeyla,SO,1578450834,9.49,50.81,25.860000000000014,299.01,299.01,1015,76,100,17.06831,78.54800000000003
314,Buchanan,LR,1578450834,5.88,-10.05,23.0,296.15,296.15,1012,94,20,3.33313,73.4
315,Dungarpur,IN,1578450834,23.85,73.71,16.55000000000001,289.7,289.7,1015,55,15,3.33313,61.79000000000002
316,Bonfim,GY,1578450834,3.36,-59.84,27.410000000000025,300.56,300.56,1012,63,0,9.283550000000002,81.33800000000005
317,Bahir Dar,ET,1578450834,11.59,37.39,16.110000000000014,289.26,289.26,1016,66,61,1.36457,60.998000000000026
318,Pangody,RU,1578450834,65.85,74.49,-20.70999999999998,252.44,252.44,1017,95,0,8.43349,-5.277999999999963
319,Sidi Ali,DZ,1578450587,36.1,0.42,6.28000000000003,279.43,279.43,1028,89,0,1.07376,43.30400000000005
320,Inhambane,MZ,1578450835,-23.87,35.38,26.30000000000001,299.45,299.45,1012,81,0,8.14268,79.34000000000003
321,Kathu,ZA,1578450835,-27.7,23.05,18.890000000000043,292.04,292.04,1006,96,100,7.42684,66.00200000000008
322,Kozhevnikovo,RU,1578450835,56.26,83.98,-7.6200000000000045,265.37,265.93,1016,92,86,2.99758,19.004000000000055
323,Marsa Matruh,EG,1578450835,31.35,27.25,9.0,282.15,282.15,1017,81,40,16.1064,48.2
324,Inhuma,BR,1578450835,-6.67,-41.71,21.400000000000034,294.55,294.55,1012,91,3,2.39359,70.52000000000007
325,Flinders,AU,1578450835,-34.58,150.85,24.930000000000007,296.48,299.26,1016,57,3,13.8694,78.99800000000002
326,Swedru,GH,1578450835,6.83,-1.6,21.03000000000003,294.18,294.18,1011,63,17,4.27267,69.85400000000006
327,Pierre,US,1578450722,44.37,-100.35,-5.509999999999991,267.04,268.71,1024,62,90,6.9347,24.008000000000003
328,Huarmey,PE,1578450836,-10.07,-78.15,19.5,292.65,292.65,1017,85,14,2.77388,67.1
329,Nuuk,GL,1578450836,64.17,-51.74,-16.0,257.15,257.15,986,71,75,18.3434,3.1999999999999993
330,Eufaula,US,1578450836,31.89,-85.15,7.180000000000007,278.15,282.15,1027,49,1,5.92805,48.2
331,Neftcala,AZ,1578450836,39.37,49.25,9.360000000000014,282.51,282.51,1017,75,24,7.11366,48.84800000000003
332,Fenoarivo,MG,1578450836,-18.93,47.44,18.0,291.15,291.15,1019,93,75,2.237,64.4
333,Kapiri Mposhi,ZM,1578450837,-13.97,28.68,17.189999999999998,290.34,290.34,1013,93,100,3.40024,62.94199999999999
334,Omidiyeh,IR,1578450541,30.76,49.7,8.689999999999998,280.15,283.15,1018,87,0,4.6977,50.0
335,De Aar,ZA,1578450837,-30.65,24.01,20.340000000000032,293.49,293.49,1010,70,99,14.22732,68.61200000000005
336,Ostrovnoy,RU,1578450837,68.05,39.51,1.4500000000000455,274.6,274.6,994,92,100,20.267220000000002,34.610000000000085
337,Douentza,ML,1578450837,15.01,-2.95,14.25,287.4,287.4,1013,28,100,3.48972,57.650000000000006
338,Porbandar,IN,1578450783,21.64,69.61,15.0,288.15,288.15,1015,87,0,12.59431,59.0
339,Katete,UG,1578450838,-0.78,29.75,15.700000000000045,288.85,288.85,1014,91,100,1.45405,60.26000000000008
340,Kathmandu,NP,1578450707,27.71,85.32,7.0,280.15,280.15,1019,100,40,2.237,44.6
341,Kamyshevatskaya,RU,1578450838,46.41,37.96,1.5500000000000114,274.7,274.7,1021,86,100,18.231550000000002,34.79000000000002
342,Daud Khel,PK,1578450838,32.58,71.54,8.470000000000027,281.62,281.62,1017,75,37,4.45163,47.24600000000005
343,Birao,CF,1578450838,10.3,22.78,20.610000000000014,293.76,293.76,1012,28,0,11.07315,69.09800000000003
344,Mizdah,LY,1578450838,31.45,12.98,4.5,277.65,277.65,1027,89,0,3.01995,40.1
345,Puerto Escondido,MX,1578450839,15.86,-97.07,26.0,299.15,299.15,1014,74,5,6.509670000000001,78.80000000000001
346,Sheffield,GB,1578450662,53.38,-1.47,11.150000000000034,282.59,285.37,1014,81,75,10.2902,53.99600000000005
347,Kuching,MY,1578450839,1.56,110.34,28.930000000000007,302.04,302.15,1010,83,75,3.0646900000000006,84.2
348,Hasaki,JP,1578450839,35.73,140.83,4.850000000000023,277.59,278.15,1003,100,75,6.9347,41.0
349,Derzhavinsk,KZ,1578450839,51.1,66.31,-16.489999999999952,256.66,256.66,1033,95,92,5.77146,2.3180000000000867
350,Thenzawl,IN,1578450839,23.28,92.78,12.0,285.15,285.15,1017,100,20,5.8162,53.6
351,Mulege,MX,1578450840,26.88,-111.98,16.29000000000002,289.44,289.44,1016,67,80,5.65961,61.32200000000004
352,Fare,PF,1578450840,-16.7,-151.02,27.840000000000032,300.99,300.99,1010,78,1,17.023570000000003,82.11200000000005
353,Windhoek,NA,1578450840,-22.57,17.08,18.49000000000001,291.15,292.15,1018,55,64,2.237,66.2
354,Shangqiu,CN,1578450840,34.42,115.65,6.670000000000016,279.82,279.82,1026,65,97,2.97521,44.00600000000003
355,Cidreira,BR,1578450840,-30.17,-50.22,23.57000000000005,296.72,296.72,1011,71,0,8.54534,74.4260000000001
356,Plastun,RU,1578450723,44.76,136.29,-2.4799999999999613,270.67,270.67,1012,44,100,2.61729,27.53600000000007
357,Pasni,PK,1578450840,25.26,63.48,15.189999999999998,288.34,288.34,1020,29,0,27.7388,59.342
358,Maceio,BR,1578450549,-9.67,-35.74,24.0,297.15,297.15,1013,88,0,4.6977,75.2
359,Trelew,AR,1578450638,-43.25,-65.31,18.710000000000036,291.86,291.86,995,33,0,21.22913,65.67800000000007
360,Taungdwingyi,MM,1578450841,20.0,95.55,22.480000000000018,295.63,295.63,1016,58,0,3.73579,72.46400000000003
361,Poopo,BO,1578450841,-18.38,-66.97,13.140000000000043,286.29,286.29,1016,45,98,6.375450000000001,55.65200000000008
362,Kosa,JP,1578450841,32.67,130.82,10.760000000000048,283.71,284.15,1015,76,75,16.1064,51.8
363,Xushan,CN,1578450841,30.18,121.25,7.4500000000000455,280.15,280.93,1029,63,75,11.185,46.004000000000055
364,Tateyama,JP,1578450841,36.66,137.31,17.0,290.15,290.15,997,63,75,10.2902,62.6
365,Los Llanos de Aridane,ES,1578450842,28.66,-17.92,15.850000000000023,287.04,291.15,1028,68,75,10.2902,64.4
366,Haines Junction,CA,1578450842,60.75,-137.51,-25.049999999999983,248.1,248.1,1014,99,98,4.49637,-13.089999999999968
367,Touros,BR,1578450842,-5.2,-35.46,26.0,299.15,299.15,1013,88,75,4.6977,78.80000000000001
368,Platanos,GR,1578450842,35.47,23.6,8.980000000000018,281.15,283.15,1019,81,75,23.041100000000004,50.0
369,Nevers,FR,1578450842,46.99,3.16,9.379999999999995,282.04,283.15,1029,93,90,9.1717,50.0
370,Egvekinot,RU,1578450842,66.32,-179.17,-27.579999999999984,245.57,245.57,1022,94,0,3.28839,-17.64399999999997
371,Sibolga,ID,1578450842,1.74,98.78,29.03000000000003,302.18,302.18,1011,60,68,3.15417,84.25400000000005
372,Constantine,DZ,1578450843,36.36,6.61,2.0,275.15,275.15,1028,93,40,2.16989,35.6
373,Erdenet,MN,1578450843,49.03,104.04,-19.92999999999998,253.22,253.22,1036,78,0,2.57255,-3.8739999999999597
374,Loreto,PY,1578450843,-23.27,-57.32,25.460000000000036,298.61,298.61,1007,77,100,3.95949,77.82800000000006
375,Madanapalle,IN,1578450843,13.56,78.5,18.980000000000018,292.13,292.13,1016,85,36,5.1451,66.16400000000004
376,Lorengau,PG,1578450843,-2.02,147.27,26.120000000000005,299.27,299.27,1007,90,100,15.14449,79.01600000000002
377,Astorga,BR,1578450844,-23.24,-51.66,22.340000000000032,295.15,296.15,1012,100,90,3.3555,73.4
378,Lalmohan,BD,1578450844,22.34,90.74,18.930000000000007,292.08,292.08,1017,59,48,7.47158,66.07400000000001
379,Narsaq,GL,1578450844,60.91,-46.05,-11.0,262.15,262.15,990,78,100,4.6977,12.2
380,Juneau,US,1578450844,58.3,-134.42,-1.339999999999975,270.15,273.15,1006,92,90,10.2902,32.0
381,Fortuna,US,1578450844,40.6,-124.16,8.710000000000036,279.26,283.15,1018,93,75,9.1717,50.0
382,La Palma,CO,1578450844,5.36,-74.39,20.060000000000002,293.21,293.21,1017,94,9,2.4607,68.108
383,Fort Wellington,GY,1578450844,6.4,-57.6,26.680000000000007,299.83,299.83,1014,80,32,18.052590000000002,80.02400000000002
384,Bowen,AU,1578450844,-20.01,148.25,31.939999999999998,304.15,305.93,1012,55,9,14.987900000000002,91.00400000000005
385,Altagracia de Orituco,VE,1578450845,9.86,-66.38,19.879999999999995,293.03,293.03,1015,97,62,3.31076,67.78399999999999
386,Show Low,US,1578450846,34.25,-110.03,-0.44999999999998863,270.37,275.37,1024,63,1,5.8162,35.99600000000005
387,Darab,IR,1578450846,28.75,54.55,7.1200000000000045,280.27,280.27,1021,54,0,2.16989,44.81600000000001
388,Lennoxtown,GB,1578450846,55.97,-4.2,6.760000000000048,278.71,280.93,1009,75,100,16.1064,46.004000000000055
389,Morros,BR,1578450846,-2.87,-44.04,26.0,299.15,299.15,1013,88,20,6.9347,78.80000000000001
390,Burnie,AU,1578450748,-41.05,145.91,20.0,293.15,293.15,1005,75,0,9.99939,68.0
391,Kloulklubed,PW,1578450846,7.04,134.26,29.0,302.15,302.15,1010,74,75,12.750900000000001,84.2
392,Trapani,IT,1578450846,38.02,12.54,8.930000000000007,280.37,285.93,1024,81,100,4.6977,55.004000000000055
393,Iqaluit,CA,1578450847,63.75,-68.52,-27.879999999999967,245.15,245.37,1001,61,90,8.0532,-18.003999999999955
394,Ratnagiri,IN,1578450847,16.98,73.3,23.720000000000027,296.87,296.87,1014,74,3,1.76723,74.69600000000005
395,Bahia Honda,CU,1578450847,22.9,-83.16,20.610000000000014,293.76,293.76,1023,83,82,14.40628,69.09800000000003
396,Safford,US,1578450847,32.83,-109.71,7.090000000000032,278.71,282.15,1022,29,1,8.0532,48.2
397,Camacupa,AO,1578450847,-12.02,17.48,16.77000000000004,289.92,289.92,1014,95,100,3.1318,62.18600000000007
398,Port Lincoln,AU,1578450847,-34.72,135.86,26.460000000000036,299.61,299.61,1014,39,0,9.66384,79.62800000000007
399,Hovd,NO,1578450847,63.83,10.7,7.390000000000043,278.71,282.59,979,57,100,28.857300000000002,48.992
400,Camopi,GF,1578450847,3.17,-52.33,22.090000000000032,295.24,295.24,1013,99,100,2.10278,71.76200000000006
401,Yartsevo,RU,1578450848,55.07,32.69,-0.7599999999999909,272.39,272.39,1025,92,100,8.03083,30.632000000000016
402,Zhuanghe,CN,1578450848,39.7,122.97,0.0,273.15,273.15,1022,43,4,8.99274,32.0
403,Tiznit,MA,1578450848,29.7,-9.73,9.060000000000002,282.21,282.21,1026,37,0,3.78053,48.30800000000001
404,Ponta Delgada,PT,1578450848,37.73,-25.67,18.0,291.15,291.15,1030,93,20,12.750900000000001,64.4
405,Roebourne,AU,1578450848,-20.77,117.15,35.920000000000016,309.07,309.07,999,37,88,16.95646,96.65600000000003
406,Weligama,LK,1578450848,5.97,80.42,26.74000000000001,299.89,299.89,1013,74,58,3.48972,80.13200000000002
407,Guerrero Negro,MX,1578450848,27.97,-114.04,17.670000000000016,290.82,290.82,1018,37,100,7.22551,63.806000000000026
408,Calatayud,ES,1578450849,41.35,-1.64,3.4700000000000273,274.15,279.15,1027,87,69,4.6977,42.8
409,Esmeralda,CL,1578450849,-34.33,-70.9,12.220000000000027,285.37,285.37,1015,64,0,2.4607,53.99600000000005
410,Mao,DO,1578450849,19.55,-71.08,23.960000000000036,296.48,297.59,1019,83,40,4.6977,75.99199999999999
411,Zhengjiatun,CN,1578450849,43.51,123.51,-11.689999999999998,261.46,261.46,1026,92,100,10.961300000000001,10.958000000000002
412,Okhotsk,RU,1578450849,59.36,143.24,-17.809999999999974,255.34,255.34,1009,75,100,7.8295,-0.0579999999999572
413,Bagotville,AU,1578450849,-28.98,153.42,31.680000000000007,302.15,306.15,1014,58,0,19.4619,91.4
414,Elban,RU,1578450849,50.1,136.51,-16.91999999999996,256.23,256.23,1017,91,95,2.59492,1.5440000000000715
415,Garmisch-Partenkirchen,AT,1578450850,47.49,11.1,-2.849999999999966,268.71,271.48,1032,92,0,3.3555,28.994000000000074
416,Arlit,NE,1578450850,18.74,7.39,16.100000000000023,289.25,289.25,1017,16,90,11.4087,60.98000000000005
417,Nelson Bay,AU,1578450850,-32.72,152.14,25.510000000000048,297.04,301.48,1014,73,75,18.3434,82.99400000000009
418,Northam,AU,1578450850,-31.65,116.67,27.0,300.15,300.15,1007,39,0,12.750900000000001,80.6
419,Tsiroanomandidy,MG,1578450850,-18.77,46.05,20.480000000000018,293.63,293.63,1014,93,29,0.91717,68.86400000000003
420,Bayanday,RU,1578450850,53.07,105.52,-15.199999999999989,257.95,257.95,1030,93,13,1.5659,4.640000000000018
421,Makokou,GA,1578450850,0.56,12.85,21.230000000000018,294.38,294.38,1011,91,45,2.19226,70.21400000000003
422,Gamba,CN,1578450851,28.28,88.52,-11.759999999999991,261.39,261.39,1018,62,0,3.60157,10.832000000000015
423,Pimenta Bueno,BR,1578450851,-11.68,-61.19,23.160000000000025,296.31,296.31,1011,96,100,2.4607,73.68800000000005
424,Samarai,PG,1578450851,-10.62,150.67,30.54000000000002,303.69,303.69,1006,62,100,8.43349,86.97200000000004
425,Danville,US,1578450664,37.82,-122.0,9.870000000000005,280.15,285.15,1020,87,75,9.1717,53.6
426,Gao,ML,1578450851,16.28,-0.04,17.920000000000016,291.07,291.07,1014,28,62,8.25453,64.25600000000003
427,Toul,FR,1578450851,48.68,5.89,4.770000000000039,276.15,280.15,1028,100,90,9.1717,44.6
428,Juegang,CN,1578450851,32.31,121.18,5.0,278.15,278.15,1026,70,86,1.99093,41.0
429,Yuli,CN,1578450851,24.82,106.77,17.55000000000001,290.7,290.7,1018,83,98,6.196490000000001,63.59000000000002
430,Talara,PE,1578450851,-4.58,-81.27,22.120000000000005,295.27,295.27,1014,90,100,10.71523,71.816
431,Geraldton,CA,1578450852,49.72,-86.95,-17.99999999999997,255.15,255.15,1011,70,90,11.4087,-0.39999999999994884
432,Leshukonskoye,RU,1578450852,64.9,45.76,-3.6200000000000045,269.53,269.53,1007,94,100,11.94558,25.48399999999999
433,Calabozo,VE,1578450852,8.92,-67.43,26.30000000000001,299.45,299.45,1013,61,3,6.66626,79.34000000000003
434,Imeni Babushkina,RU,1578450853,59.76,43.13,-4.389999999999986,268.76,268.76,1017,94,100,8.32164,24.098000000000024
435,Srednekolymsk,RU,1578450853,67.46,153.71,-31.319999999999965,241.83,241.83,1013,97,64,5.525390000000001,-24.37599999999994
436,Tinskoy,RU,1578450853,56.15,96.92,-10.849999999999966,262.3,262.3,1031,94,100,6.9347,12.47000000000006
437,Punta Alta,AR,1578450853,-27.46,-55.82,25.0,298.15,298.15,1009,50,0,8.0532,77.0
438,Pilar,AR,1578450853,-34.46,-58.91,22.400000000000034,292.59,299.26,1007,53,0,6.9347,78.99800000000002
439,Sao Joao da Barra,BR,1578450854,-21.64,-41.05,25.260000000000048,298.41,298.41,1011,91,40,12.86275,77.46800000000009
440,Alamosa,US,1578450680,37.47,-105.87,-12.609999999999957,259.15,262.15,1026,77,1,3.3555,12.2
441,Saskylakh,RU,1578450854,71.97,114.09,-19.849999999999966,253.3,253.3,1006,96,87,8.097940000000001,-3.72999999999994
442,Arman,RU,1578450854,59.7,150.17,-11.5,261.65,261.65,1009,87,100,8.54534,11.3
443,Te Anau,NZ,1578450854,-45.41,167.72,12.580000000000041,285.73,285.73,1015,70,74,9.6191,54.64400000000008
444,Phuket,TH,1578450189,7.89,98.4,27.900000000000034,300.15,302.15,1012,70,20,8.0532,84.2
445,Mutoko,ZW,1578450854,-17.4,32.23,18.120000000000005,291.27,291.27,1013,92,76,1.23035,64.61600000000001
446,Ouesso,CG,1578450854,1.61,16.05,23.0,296.15,296.15,1010,37,77,2.5278099999999997,73.4
447,Road Town,VG,1578450855,18.42,-64.62,25.600000000000023,298.15,299.15,1019,78,40,8.0532,78.80000000000001
448,Fasa,IR,1578450855,28.94,53.65,0.0,273.15,273.15,1020,59,0,1.70012,32.0
449,Boende,CD,1578450855,-0.28,20.88,22.850000000000023,296.0,296.0,1009,86,100,1.83434,73.13000000000005
450,Kindu,CD,1578450855,-2.95,25.92,21.689999999999998,294.84,294.84,1010,93,79,1.99093,71.042
451,Jinhua,CN,1578450855,29.11,119.65,8.740000000000009,281.89,281.89,1028,64,0,4.94377,47.73200000000001
452,Saurimo,AO,1578450855,-9.66,20.4,17.55000000000001,290.7,290.7,1013,98,100,2.37122,63.59000000000002
453,Log,SI,1578450856,46.0,15.32,-5.159999999999968,265.37,270.37,1034,85,0,3.3555,26.99600000000005
454,Tilichiki,RU,1578450785,60.47,166.1,-14.859999999999957,258.29,258.29,1012,88,100,9.30592,5.252000000000077
455,Vangaindrano,MG,1578450856,-23.35,47.6,23.720000000000027,296.87,296.87,1014,91,33,1.1185,74.69600000000005
456,Khandbari,NP,1578450856,27.38,87.21,4.010000000000048,277.16,277.16,1020,68,91,0.71584,39.21800000000009
457,Stephenville,CA,1578450856,48.55,-58.59,-3.0499999999999545,269.82,270.37,1014,86,90,17.2249,26.99600000000005
458,Lexington,US,1578450855,38.05,-84.5,3.5400000000000205,275.37,278.15,1022,52,1,10.2902,41.0
459,Hualmay,PE,1578450856,-11.1,-77.61,19.24000000000001,292.39,292.39,1017,88,25,2.84099,66.63200000000002
460,Batemans Bay,AU,1578450856,-35.71,150.18,22.78000000000003,295.93,295.93,1003,70,99,2.99758,73.00400000000005
461,Namtsy,RU,1578450857,62.72,129.66,-19.99999999999997,253.15,253.15,1013,83,40,2.237,-3.9999999999999503
462,Eisenerz,AT,1578450857,47.54,14.89,-2.9699999999999704,267.59,274.82,1031,96,80,1.85671,35.00600000000003
463,Teguldet,RU,1578450857,57.31,88.17,-11.029999999999973,262.12,262.12,1029,96,96,4.96614,12.146000000000047
464,Poltavka,RU,1578450857,54.36,71.76,-15.060000000000002,258.09,258.09,1031,98,100,1.5435299999999998,4.891999999999996
465,Netarhat,IN,1578450857,23.45,84.31,15.740000000000009,288.89,288.89,1018,55,40,4.004230000000001,60.33200000000002
466,Hoquiam,US,1578450857,46.98,-123.89,8.930000000000007,281.15,282.59,1006,100,90,12.750900000000001,48.992
467,Puerto Montt,CL,1578450762,-41.47,-72.94,11.0,284.15,284.15,1005,93,90,6.9347,51.8
468,Garmsar,IR,1578450857,35.22,52.34,4.470000000000027,277.62,277.62,1021,57,0,6.39782,40.04600000000005
469,Kasiri,SL,1578450858,8.94,-13.11,21.340000000000032,294.49,294.49,1011,89,0,3.28839,70.41200000000006
470,Tuy Hoa,VN,1578450763,13.08,109.3,25.110000000000014,298.26,298.26,1016,81,100,14.898420000000002,77.19800000000004
471,Seymchan,RU,1578450858,62.93,152.39,-31.079999999999984,242.07,242.07,1014,88,61,1.07376,-23.943999999999974
472,Lakes Entrance,AU,1578450858,-37.88,147.99,20.980000000000018,293.15,294.82,1017,92,100,1.00665,71.00600000000003
473,Visina,RO,1578450858,44.58,25.33,-6.949999999999989,265.15,268.15,1031,100,0,4.6977,23.0
474,Fallingbostel,DE,1578450858,52.87,9.7,7.170000000000016,279.15,282.04,1020,65,20,14.987900000000002,48.00200000000008
475,Mangrol,IN,1578450858,25.33,76.51,16.200000000000045,289.35,289.35,1014,62,61,2.70677,61.16000000000008
476,Jogindarnagar,IN,1578450858,31.98,76.77,-3.089999999999975,270.06,270.06,1020,85,69,3.95949,26.438000000000045
477,Faya,SA,1578450859,18.39,42.45,13.510000000000048,286.15,287.15,1024,87,40,9.1717,57.2
478,Serenje,ZM,1578450859,-13.23,30.22,17.02000000000004,290.17,290.17,1013,92,100,1.2527200000000003,62.63600000000007
479,Beira,ES,1578450859,43.2,-8.36,10.170000000000016,279.26,286.48,1030,93,75,1.1185,55.99400000000007
480,Nautanwa,NP,1578450859,27.43,83.42,15.0,288.15,288.15,1019,67,82,3.73579,59.0
481,Nome,US,1578450859,30.04,-94.42,7.050000000000011,278.15,283.15,1029,57,1,2.72914,50.0
482,Zhigansk,RU,1578450859,66.77,123.37,-21.19999999999999,251.95,251.95,1011,97,100,6.62152,-6.159999999999982
483,Udachnyy,RU,1578450859,66.42,112.4,-16.0,257.15,257.15,1006,84,79,4.474,3.1999999999999993
484,Campbell River,CA,1578450859,50.02,-125.24,6.900000000000034,278.71,281.15,1000,93,90,8.0532,46.4
485,Grindavik,IS,1578450860,63.84,-22.43,-1.4699999999999704,271.15,272.15,963,79,75,48.3192,30.2
486,Russell,US,1578450621,38.9,-98.86,1.6200000000000045,270.93,278.15,1021,64,1,9.1717,41.0
487,Samana,EC,1578450860,0.12,-76.97,22.560000000000002,295.71,295.71,1014,87,0,3.1318,72.608
488,Oda,JP,1578450860,35.19,132.5,12.0,285.15,285.15,1004,66,75,38.029,53.6
489,Agadez,NE,1578450860,16.97,7.99,17.0,290.15,290.15,1018,17,1,14.876050000000001,62.6
490,At-Bashi,KG,1578450860,41.17,75.81,-20.399999999999977,252.75,252.75,1030,98,100,1.72249,-4.719999999999963
491,Mikuni,JP,1578450860,36.22,136.15,17.0,290.15,290.15,999,63,75,16.1064,62.6
492,Ahuimanu,US,1578450861,21.44,-157.84,24.480000000000018,296.15,299.15,1019,69,75,18.3434,78.80000000000001
493,Sarakhs,TM,1578450861,36.54,61.16,4.0,277.15,277.15,1022,69,0,11.4087,39.2
494,Iracoubo,GF,1578450861,5.48,-53.21,27.010000000000048,300.16,300.16,1014,83,34,18.36577,80.61800000000008
495,Novoagansk,RU,1578450861,61.94,76.66,-18.359999999999985,254.79,254.79,1024,94,100,9.283550000000002,-1.0479999999999734
496,Aktau,KZ,1578450861,43.65,51.16,1.0,274.15,274.15,1021,74,100,15.659,33.8
497,Alice Springs,AU,1578450861,-23.7,133.88,36.0,309.15,309.15,1011,20,94,16.1064,96.8
498,Marsh Harbour,BS,1578450861,26.54,-77.06,21.629999999999995,294.78,294.78,1023,57,0,6.66626,70.934
499,Harper,US,1578450861,30.3,-99.24,7.82000000000005,278.15,282.59,1028,30,1,10.82708,48.992
500,Ust-Kuyga,RU,1578450862,70.0,135.55,-26.68999999999997,246.46,246.46,1011,99,93,7.09129,-16.041999999999945
501,Norsup,VU,1578450862,-16.07,167.38,31.0,304.15,304.15,1009,62,75,12.750900000000001,87.80000000000001
502,Aklavik,CA,1578450862,68.22,-135.01,-37.99999999999997,235.15,235.15,1025,65,5,3.3555,-36.39999999999995
503,Camacha,PT,1578450862,33.08,-16.33,16.57000000000005,289.15,290.15,1031,63,40,9.1717,62.6
504,Malpe,IN,1578450862,13.35,74.72,24.0,297.15,297.15,1013,88,20,3.3555,75.2
505,Redlands,US,1578450592,34.06,-117.19,13.010000000000048,275.93,292.15,1017,18,75,4.6977,66.2
506,Tim,RU,1578450862,51.62,37.12,-8.0,265.15,265.15,1028,85,0,2.237,17.6
507,Wanning,AT,1578450862,48.64,13.53,0.3300000000000409,272.04,275.15,1031,93,75,4.6977,35.6
508,Takoradi,GH,1578450862,4.89,-1.75,25.08000000000004,298.23,298.23,1011,80,88,6.44256,77.14400000000008
509,Abu Samrah,SY,1578450863,35.3,37.18,7.210000000000036,280.36,280.36,1011,85,93,10.2902,44.978000000000065
510,Moron,HT,1578450863,18.56,-74.26,24.930000000000007,298.08,298.08,1018,77,0,8.5006,76.87400000000002
511,Santa Cruz,BR,1578450863,-6.22,-36.02,23.129999999999995,296.28,296.28,1012,91,94,4.2503,73.63399999999999
512,Yarmouth,CA,1578450863,43.84,-66.12,-2.4399999999999977,270.15,271.48,1016,79,90,5.8162,28.994000000000074
513,Buala,SB,1578450863,-8.15,159.59,30.260000000000048,303.41,303.41,1005,68,100,7.583430000000001,86.46800000000009
514,Chimbote,PE,1578450863,-9.08,-78.59,21.24000000000001,294.39,294.39,1016,78,1,4.98851,70.23200000000003
515,Santiago,PH,1578450851,16.69,121.54,26.110000000000014,299.26,299.26,1015,68,29,4.138450000000001,78.99800000000002
516,Aripuana,BR,1578450863,-9.17,-60.63,24.379999999999995,297.53,297.53,1011,88,67,2.84099,75.88399999999999
517,Eskil,TR,1578450864,38.4,33.41,3.2600000000000477,276.41,276.41,1012,85,100,6.95707,37.86800000000009
518,Araouane,ML,1578450864,18.9,-3.53,14.370000000000005,287.52,287.52,1015,17,67,8.12031,57.866000000000014
519,Porto Seguro,BR,1578450864,-16.44,-39.06,26.0,299.15,299.15,1013,83,75,8.0532,78.80000000000001
520,Bay Saint Louis,US,1578450864,30.31,-89.33,5.810000000000002,277.15,280.37,1028,100,1,2.14752,44.99600000000005
521,Suez,EG,1578450864,29.97,32.54,8.689999999999998,281.84,281.84,1017,66,0,11.99032,47.641999999999996
522,Omboue,GA,1578450864,-1.57,9.26,24.28000000000003,297.43,297.43,1009,93,88,0.6263600000000001,75.70400000000006
523,Astana,KZ,1578450693,51.13,71.43,-19.99999999999997,253.15,253.15,1028,83,90,3.5792,-3.9999999999999503
524,Cacoal,BR,1578450865,-11.43,-61.44,24.29000000000002,297.44,297.44,1011,95,100,2.86336,75.72200000000004
525,Ekhabi,RU,1578450865,53.51,142.97,-10.849999999999966,262.3,262.3,1011,90,100,15.01027,12.47000000000006
526,Buin,CL,1578450865,-33.73,-70.74,19.0,292.15,292.15,1014,55,0,8.0532,66.2
527,Santa Rosalia,IT,1578450865,38.07,13.27,9.020000000000039,280.37,285.93,1024,81,98,4.6977,55.004000000000055
528,Morris,US,1578450865,45.59,-95.91,-17.409999999999968,254.26,257.15,1025,77,1,6.9347,3.1999999999999993
529,Mildura,AU,1578450865,-34.18,142.16,31.0,304.15,304.15,1014,18,0,10.2902,87.80000000000001
530,Kalmunai,LK,1578450666,7.42,81.82,27.430000000000007,300.58,300.58,1013,75,100,17.62756,81.37400000000002
531,Naze,NG,1578450866,5.43,7.07,24.0,297.15,297.15,1010,78,100,1.83434,75.2
532,Tinaquillo,VE,1578450866,9.92,-68.31,18.83000000000004,291.98,291.98,1014,90,45,3.3555,65.89400000000008
533,Nemuro,JP,1578450866,43.32,145.57,-3.0,270.15,270.15,1014,79,75,3.3555,26.6
534,Skegness,GB,1578450866,53.14,0.34,12.270000000000039,284.82,286.15,1013,81,100,18.3434,55.400000000000006
535,Isangel,VU,1578450866,-19.55,169.27,30.0,303.15,303.15,1010,55,75,11.4087,86.0
536,Qasigiannguit,GL,1578450867,68.82,-51.19,-18.99999999999997,254.15,254.15,984,53,23,13.8694,-2.199999999999953
537,Misrikh,IN,1578450867,27.43,80.53,14.620000000000005,287.77,287.77,1016,74,63,6.77811,58.31600000000001
538,Veraval,FR,1578450867,49.65,0.71,12.0,284.82,285.37,1025,93,90,12.750900000000001,53.99600000000005
539,Salinopolis,BR,1578450867,-0.61,-47.36,27.670000000000016,300.82,300.82,1012,77,57,13.91414,81.80600000000004
540,Granville,FR,1578450867,48.84,-1.6,11.680000000000007,284.26,285.15,1024,100,100,14.987900000000002,53.6
541,Annapolis,US,1578450867,38.98,-76.49,0.12000000000000455,271.48,275.15,1016,77,40,6.9347,35.6
542,Sembakung,ID,1578450867,3.82,117.25,29.0,302.15,302.15,1011,65,81,5.90568,84.2
543,Canutama,BR,1578450867,-6.53,-64.38,24.390000000000043,297.54,297.54,1011,94,100,1.29746,75.90200000000007
544,Diu,IN,1578450868,20.71,70.98,22.04000000000002,295.19,295.19,1015,57,0,9.79806,71.67200000000004
545,Kibre Mengist,ET,1578450868,5.87,38.99,14.470000000000027,287.62,287.62,1017,95,69,1.02902,58.04600000000005
546,Aranos,NA,1578450868,-24.14,19.11,22.08000000000004,295.23,295.23,1007,74,96,6.57678,71.74400000000009
547,Sebring,US,1578450868,27.5,-81.44,13.560000000000002,284.15,289.15,1024,77,1,5.8162,60.8
548,Mporokoso,ZM,1578450868,-9.37,30.12,16.410000000000025,289.56,289.56,1013,95,87,2.61729,61.538000000000046
549,Gladstone,AU,1578450641,-23.84,151.26,30.920000000000016,303.15,304.82,1014,55,0,11.4087,89.00600000000003
550,Mazatlan,MX,1578450841,23.22,-106.42,21.129999999999995,292.15,295.37,1014,88,20,5.8162,71.99600000000005
551,Chicama,PE,1578450868,-7.84,-79.15,21.0,294.15,294.15,1014,83,40,9.1717,69.80000000000001
552,Devarkonda,IN,1578450869,16.69,78.91,21.79000000000002,294.94,294.94,1016,82,12,6.285970000000001,71.22200000000004
553,Labuhan,ID,1578450869,-2.54,115.51,32.64000000000004,305.79,305.79,1009,54,70,2.41596,90.75200000000008
554,Bar Harbor,US,1578450869,44.39,-68.2,-3.909999999999968,265.93,272.59,1015,79,40,3.3555,30.991999999999997
555,Halmasd,RO,1578450869,47.15,22.62,-9.539999999999964,262.15,265.15,1031,85,0,4.6977,17.6
556,Panormos,GR,1578450869,38.37,22.25,2.080000000000041,270.37,278.71,1021,77,0,6.30834,42.008
